[
  {
    "name": "21 Ángeles",
    "lat": 4.612362,
    "lon": -74.009857
  },
  {
    "name": "7 de Agosto",
    "lat": 4.719598,
    "lon": -74.080268
  },
  {
    "name": "Alcalá",
    "lat": 4.546806,
    "lon": -74.168801
  },
  {
    "name": "Alquería",
    "lat": 4.517425,
    "lon": -74.026765
  },
  {
    "name": "Av. 1 de Mayo",
    "lat": 4.680335,
    "lon": -74.058385
  },
  {
    "name": "Av. Suba - Av. Boyacá",
    "lat": 4.506175,
    "lon": -74.006018
  },
  {
    "name": "Av. Suba - Calle 100",
    "lat": 4.749733,
    "lon": -74.157532
  },
  {
    "name": "Av. Suba - Calle 116",
    "lat": 4.554547,
    "lon": -74.163319
  },
  {
    "name": "Av. Suba - Calle 95",
    "lat": 4.591273,
    "lon": -74.095049
  },
  {
    "name": "Av. Suba - Tv. 91",
    "lat": 4.629584,
    "lon": -74.141754
  },
  {
    "name": "Avenida 39",
    "lat": 4.683556,
    "lon": -74.172101
  },
  {
    "name": "Avenida 68",
    "lat": 4.587643,
    "lon": -74.126728
  },
  {
    "name": "Avenida Cali",
    "lat": 4.636821,
    "lon": -74.042965
  },
  {
    "name": "Avenida Chile",
    "lat": 4.559902,
    "lon": -74.097153
  },
  {
    "name": "Avenida El Dorado",
    "lat": 4.677724,
    "lon": -74.19071
  },
  {
    "name": "Avenida Jiménez",
    "lat": 4.682263,
    "lon": -74.165895
  },
  {
    "name": "Biblioteca",
    "lat": 4.519515,
    "lon": -74.010223
  },
  {
    "name": "Biblioteca Tintal",
    "lat": 4.78969,
    "lon": -74.038321
  },
  {
    "name": "Bicentenario",
    "lat": 4.591384,
    "lon": -74.180466
  },
  {
    "name": "Bosa",
    "lat": 4.70527,
    "lon": -74.11197
  },
  {
    "name": "Boyacá",
    "lat": 4.536611,
    "lon": -74.100965
  },
  {
    "name": "CAD",
    "lat": 4.510317,
    "lon": -74.018136
  },
  {
    "name": "Calle 100 - Marketmedios",
    "lat": 4.577634,
    "lon": -74.067496
  },
  {
    "name": "Calle 106",
    "lat": 4.593513,
    "lon": -74.095986
  },
  {
    "name": "Calle 110 (Pepe Sierra)",
    "lat": 4.664013,
    "lon": -74.163029
  },
  {
    "name": "Calle 127",
    "lat": 4.790875,
    "lon": -74.044973
  },
  {
    "name": "Calle 142",
    "lat": 4.78185,
    "lon": -74.021035
  },
  {
    "name": "Calle 146",
    "lat": 4.67937,
    "lon": -74.015625
  },
  {
    "name": "Calle 187",
    "lat": 4.526548,
    "lon": -74.160803
  },
  {
    "name": "Calle 19",
    "lat": 4.513568,
    "lon": -74.134934
  },
  {
    "name": "Calle 22",
    "lat": 4.616603,
    "lon": -74.14573
  },
  {
    "name": "Calle 26",
    "lat": 4.748621,
    "lon": -74.128649
  },
  {
    "name": "Calle 30 S (NQS)",
    "lat": 4.58428,
    "lon": -74.091461
  },
  {
    "name": "Calle 34",
    "lat": 4.542277,
    "lon": -74.039561
  },
  {
    "name": "Calle 34/32 (San Façon - Carrera 22)",
    "lat": 4.522365,
    "lon": -74.002623
  },
  {
    "name": "Calle 40 Sur",
    "lat": 4.731673,
    "lon": -74.160257
  },
  {
    "name": "Calle 45 - American School Way",
    "lat": 4.501657,
    "lon": -74.036908
  },
  {
    "name": "Calle 57",
    "lat": 4.712057,
    "lon": -74.054199
  },
  {
    "name": "Calle 63",
    "lat": 4.731381,
    "lon": -74.185191
  },
  {
    "name": "Calle 69 (Flores - Areandina)",
    "lat": 4.60754,
    "lon": -74.176826
  },
  {
    "name": "Calle 72",
    "lat": 4.758931,
    "lon": -74.07534
  },
  {
    "name": "Calle 75 - Zona M",
    "lat": 4.599269,
    "lon": -74.187288
  },
  {
    "name": "Calle 76 - San Felipe",
    "lat": 4.593295,
    "lon": -74.134963
  },
  {
    "name": "Calle 85",
    "lat": 4.718882,
    "lon": -74.072489
  },
  {
    "name": "Carrera 32 (CDS - Carrera 32)",
    "lat": 4.766164,
    "lon": -74.105557
  },
  {
    "name": "Carrera 43 - COMAPAN",
    "lat": 4.535878,
    "lon": -74.057351
  },
  {
    "name": "Carrera 47",
    "lat": 4.728236,
    "lon": -74.087745
  },
  {
    "name": "Carrera 53",
    "lat": 4.73129,
    "lon": -74.101241
  },
  {
    "name": "Carrera 90",
    "lat": 4.65682,
    "lon": -74.114492
  },
  {
    "name": "Centro Comercial Paseo Villa del Río - Madelena",
    "lat": 4.507626,
    "lon": -74.178422
  },
  {
    "name": "Centro Memoria",
    "lat": 4.509429,
    "lon": -74.072718
  },
  {
    "name": "Ciudad Jardín",
    "lat": 4.594307,
    "lon": -74.098286
  },
  {
    "name": "Ciudad Universitaria",
    "lat": 4.77227,
    "lon": -74.150142
  },
  {
    "name": "Comuneros",
    "lat": 4.623115,
    "lon": -74.04889
  },
  {
    "name": "Concejo de Bogotá",
    "lat": 4.568639,
    "lon": -74.184604
  },
  {
    "name": "Consuelo",
    "lat": 4.586925,
    "lon": -74.167756
  },
  {
    "name": "Country Sur",
    "lat": 4.778909,
    "lon": -74.038376
  },
  {
    "name": "De La Sabana",
    "lat": 4.690021,
    "lon": -74.025708
  },
  {
    "name": "Distrito Grafiti",
    "lat": 4.741102,
    "lon": -74.162686
  },
  {
    "name": "El Campín - Universidad Antonio Nariño",
    "lat": 4.767768,
    "lon": -74.092132
  },
  {
    "name": "El Tiempo - Maloka",
    "lat": 4.742232,
    "lon": -74.020782
  },
  {
    "name": "Escuela Militar",
    "lat": 4.595401,
    "lon": -74.17799
  },
  {
    "name": "Estación Central",
    "lat": 4.568381,
    "lon": -74.114578
  },
  {
    "name": "Fucha",
    "lat": 4.745404,
    "lon": -74.027854
  },
  {
    "name": "General Santander",
    "lat": 4.502086,
    "lon": -74.097851
  },
  {
    "name": "Gobernación",
    "lat": 4.625223,
    "lon": -74.155578
  },
  {
    "name": "Granja - Carrera 77",
    "lat": 4.53596,
    "lon": -74.132477
  },
  {
    "name": "Gratamira",
    "lat": 4.782873,
    "lon": -74.135359
  },
  {
    "name": "Guatoque - Veraguas",
    "lat": 4.655637,
    "lon": -74.059396
  },
  {
    "name": "Hortúa",
    "lat": 4.609089,
    "lon": -74.005644
  },
  {
    "name": "Hospital",
    "lat": 4.788734,
    "lon": -74.149644
  },
  {
    "name": "Humedal Córdoba",
    "lat": 4.649175,
    "lon": -74.139824
  },
  {
    "name": "Héroes - Gel'hada",
    "lat": 4.585452,
    "lon": -74.192623
  },
  {
    "name": "La Campiña",
    "lat": 4.682869,
    "lon": -74.099464
  },
  {
    "name": "La Castellana",
    "lat": 4.515444,
    "lon": -74.144271
  },
  {
    "name": "La Despensa",
    "lat": 4.77248,
    "lon": -74.152088
  },
  {
    "name": "Las Aguas",
    "lat": 4.543468,
    "lon": -74.102109
  },
  {
    "name": "Las Nieves",
    "lat": 4.795695,
    "lon": -74.151589
  },
  {
    "name": "León XIII",
    "lat": 4.701641,
    "lon": -74.047676
  },
  {
    "name": "Mandalay",
    "lat": 4.571291,
    "lon": -74.054357
  },
  {
    "name": "Marly",
    "lat": 4.610335,
    "lon": -74.073539
  },
  {
    "name": "Mazurén",
    "lat": 4.690059,
    "lon": -74.092845
  },
  {
    "name": "Minuto de Dios",
    "lat": 4.527087,
    "lon": -74.03294
  },
  {
    "name": "Molinos",
    "lat": 4.596234,
    "lon": -74.162696
  },
  {
    "name": "Movistar Arena",
    "lat": 4.512233,
    "lon": -74.081821
  },
  {
    "name": "Museo Nacional",
    "lat": 4.703269,
    "lon": -74.196682
  },
  {
    "name": "Museo del Oro",
    "lat": 4.653628,
    "lon": -74.154701
  },
  {
    "name": "NQS Calle 30 S",
    "lat": 4.693552,
    "lon": -74.165127
  },
  {
    "name": "NQS Calle 38A Sur",
    "lat": 4.707281,
    "lon": -74.122653
  },
  {
    "name": "Nariño",
    "lat": 4.781019,
    "lon": -74.172496
  },
  {
    "name": "Niza - Calle 127",
    "lat": 4.60232,
    "lon": -74.177305
  },
  {
    "name": "Olaya",
    "lat": 4.777408,
    "lon": -74.024532
  },
  {
    "name": "Paloquemao",
    "lat": 4.577382,
    "lon": -74.068003
  },
  {
    "name": "Parque",
    "lat": 4.745167,
    "lon": -74.08896
  },
  {
    "name": "Patio Bonito",
    "lat": 4.658895,
    "lon": -74.15163
  },
  {
    "name": "Perdomo",
    "lat": 4.527931,
    "lon": -74.020557
  },
  {
    "name": "Policarpa",
    "lat": 4.770125,
    "lon": -74.07338
  },
  {
    "name": "Polo",
    "lat": 4.601709,
    "lon": -74.130158
  },
  {
    "name": "Portal 20 de Julio",
    "lat": 4.717787,
    "lon": -74.020578
  },
  {
    "name": "Portal Sur - JFK Cooperativa Financiera",
    "lat": 4.766126,
    "lon": -74.044025
  },
  {
    "name": "Portal Tunal",
    "lat": 4.692609,
    "lon": -74.183172
  },
  {
    "name": "Portal de Las Américas",
    "lat": 4.548489,
    "lon": -74.020289
  },
  {
    "name": "Portal de Suba",
    "lat": 4.681929,
    "lon": -74.198161
  },
  {
    "name": "Portal del Norte",
    "lat": 4.530441,
    "lon": -74.0673
  },
  {
    "name": "Pradera",
    "lat": 4.501518,
    "lon": -74.167838
  },
  {
    "name": "Prado",
    "lat": 4.66462,
    "lon": -74.061621
  },
  {
    "name": "Puente Aranda",
    "lat": 4.695588,
    "lon": -74.155146
  },
  {
    "name": "Puente Largo",
    "lat": 4.713654,
    "lon": -74.15255
  },
  {
    "name": "Quinta Paredes",
    "lat": 4.59762,
    "lon": -74.050702
  },
  {
    "name": "Quirigua",
    "lat": 4.69489,
    "lon": -74.030155
  },
  {
    "name": "Quiroga",
    "lat": 4.697284,
    "lon": -74.086338
  },
  {
    "name": "Recinto Ferial",
    "lat": 4.528102,
    "lon": -74.126457
  },
  {
    "name": "Restrepo",
    "lat": 4.579561,
    "lon": -74.151202
  },
  {
    "name": "Ricaurte",
    "lat": 4.791903,
    "lon": -74.12138
  },
  {
    "name": "Rionegro",
    "lat": 4.767614,
    "lon": -74.073772
  },
  {
    "name": "SENA",
    "lat": 4.738443,
    "lon": -74.099473
  },
  {
    "name": "Salitre Greco",
    "lat": 4.673071,
    "lon": -74.101496
  },
  {
    "name": "San Bernardo",
    "lat": 4.558573,
    "lon": -74.05551
  },
  {
    "name": "San Diego",
    "lat": 4.584232,
    "lon": -74.195137
  },
  {
    "name": "San Façon - Carrera 22",
    "lat": 4.693642,
    "lon": -74.164578
  },
  {
    "name": "San Victorino Neos Centro",
    "lat": 4.782138,
    "lon": -74.009214
  },
  {
    "name": "Santa Isabel",
    "lat": 4.774459,
    "lon": -74.125968
  },
  {
    "name": "Santa Lucía",
    "lat": 4.504637,
    "lon": -74.014336
  },
  {
    "name": "Sevillana",
    "lat": 4.628455,
    "lon": -74.006669
  },
  {
    "name": "Socorro",
    "lat": 4.789086,
    "lon": -74.029398
  },
  {
    "name": "Tercer Milenio",
    "lat": 4.588335,
    "lon": -74.12298
  },
  {
    "name": "Terminal",
    "lat": 4.755341,
    "lon": -74.136616
  },
  {
    "name": "Terreros - Hospital C.V.",
    "lat": 4.550848,
    "lon": -74.08864
  },
  {
    "name": "Toberín - Foundever",
    "lat": 4.780846,
    "lon": -74.060794
  },
  {
    "name": "Transversal 86",
    "lat": 4.671018,
    "lon": -74.180565
  },
  {
    "name": "Tygua - San José",
    "lat": 4.684502,
    "lon": -74.001989
  },
  {
    "name": "Universidad Nacional de Colombia",
    "lat": 4.542025,
    "lon": -74.096334
  },
  {
    "name": "Universidades",
    "lat": 4.763212,
    "lon": -74.051846
  },
  {
    "name": "Venecia",
    "lat": 4.709105,
    "lon": -74.059503
  },
  {
    "name": "Virrey",
    "lat": 4.607847,
    "lon": -74.141282
  },
  {
    "name": "Zona Industrial",
    "lat": 4.742808,
    "lon": -74.037977
  }
]